[
    {
        "stationname":  "Acton Town Underground Station",
        "lat":  51.503016,
        "lng":  -0.28042
    },
    {
        "stationname":  "Archway Underground Station",
        "lat":  51.565684,
        "lng":  -0.134922
    },
    {
        "stationname":  "Aldgate East Underground Station",
        "lat":  51.515198,
        "lng":  -0.07204
    },
    {
        "stationname":  "Angel Underground Station",
        "lat":  51.531845,
        "lng":  -0.106344
    },
    {
        "stationname":  "Aldgate Underground Station",
        "lat":  51.514055,
        "lng":  -0.075273
    },
    {
        "stationname":  "Alperton Underground Station",
        "lat":  51.540635,
        "lng":  -0.299134
    },
    {
        "stationname":  "Arnos Grove Underground Station",
        "lat":  51.616072,
        "lng":  -0.133391
    },
    {
        "stationname":  "Arsenal Underground Station",
        "lat":  51.558408,
        "lng":  -0.105674
    },
    {
        "stationname":  "Bromley-By-Bow Underground Station",
        "lat":  51.524735,
        "lng":  -0.011434
    },
    {
        "stationname":  "Barbican Underground Station",
        "lat":  51.520317,
        "lng":  -0.097525
    },
    {
        "stationname":  "Bounds Green Underground Station",
        "lat":  51.606939,
        "lng":  -0.124552
    },
    {
        "stationname":  "Becontree Underground Station",
        "lat":  51.540408,
        "lng":  0.127521
    },
    {
        "stationname":  "Barkingside Underground Station",
        "lat":  51.585825,
        "lng":  0.088371
    },
    {
        "stationname":  "Bethnal Green Underground Station",
        "lat":  51.527322,
        "lng":  -0.055265
    },
    {
        "stationname":  "Balham Underground Station",
        "lat":  51.443236,
        "lng":  -0.152939
    },
    {
        "stationname":  "Bermondsey Underground Station",
        "lat":  51.498099,
        "lng":  -0.063627
    },
    {
        "stationname":  "Bond Street Underground Station",
        "lat":  51.514525,
        "lng":  -0.149134
    },
    {
        "stationname":  "Bank Underground Station",
        "lat":  51.513356,
        "lng":  -0.08973
    },
    {
        "stationname":  "Borough Underground Station",
        "lat":  51.501239,
        "lng":  -0.093392
    },
    {
        "stationname":  "Boston Manor Underground Station",
        "lat":  51.495857,
        "lng":  -0.324457
    },
    {
        "stationname":  "Barons Court Underground Station",
        "lat":  51.49038,
        "lng":  -0.213552
    },
    {
        "stationname":  "Baker Street Underground Station",
        "lat":  51.522462,
        "lng":  -0.156942
    },
    {
        "stationname":  "Burnt Oak Underground Station",
        "lat":  51.6026,
        "lng":  -0.263982
    },
    {
        "stationname":  "Brent Cross Underground Station",
        "lat":  51.577075,
        "lng":  -0.213358
    },
    {
        "stationname":  "Bow Road Underground Station",
        "lat":  51.527122,
        "lng":  -0.024998
    },
    {
        "stationname":  "Bayswater Underground Station",
        "lat":  51.512393,
        "lng":  -0.187686
    },
    {
        "stationname":  "Brixton Underground Station",
        "lat":  51.462658,
        "lng":  -0.114954
    },
    {
        "stationname":  "Belsize Park Underground Station",
        "lat":  51.550291,
        "lng":  -0.164732
    },
    {
        "stationname":  "Caledonian Road Underground Station",
        "lat":  51.548581,
        "lng":  -0.118111
    },
    {
        "stationname":  "Chalk Farm Underground Station",
        "lat":  51.543955,
        "lng":  -0.153507
    },
    {
        "stationname":  "Covent Garden Underground Station",
        "lat":  51.513061,
        "lng":  -0.124346
    },
    {
        "stationname":  "Chancery Lane Underground Station",
        "lat":  51.518115,
        "lng":  -0.111497
    },
    {
        "stationname":  "Charing Cross Underground Station",
        "lat":  51.508244,
        "lng":  -0.12512
    },
    {
        "stationname":  "Cockfosters Underground Station",
        "lat":  51.651861,
        "lng":  -0.149746
    },
    {
        "stationname":  "Colindale Underground Station",
        "lat":  51.595341,
        "lng":  -0.249921
    },
    {
        "stationname":  "Clapham Common Underground Station",
        "lat":  51.46182,
        "lng":  -0.138469
    },
    {
        "stationname":  "Canons Park Underground Station",
        "lat":  51.607561,
        "lng":  -0.294438
    },
    {
        "stationname":  "Clapham North Underground Station",
        "lat":  51.465185,
        "lng":  -0.12955
    },
    {
        "stationname":  "Clapham South Underground Station",
        "lat":  51.452901,
        "lng":  -0.147669
    },
    {
        "stationname":  "Colliers Wood Underground Station",
        "lat":  51.418055,
        "lng":  -0.178189
    },
    {
        "stationname":  "Cannon Street Underground Station",
        "lat":  51.511584,
        "lng":  -0.090784
    },
    {
        "stationname":  "Camden Town Underground Station",
        "lat":  51.539302,
        "lng":  -0.14249
    },
    {
        "stationname":  "Chiswick Park Underground Station",
        "lat":  51.494362,
        "lng":  -0.267391
    },
    {
        "stationname":  "Canary Wharf Underground Station",
        "lat":  51.50353,
        "lng":  -0.019995
    },
    {
        "stationname":  "Dagenham East Underground Station",
        "lat":  51.544236,
        "lng":  0.166021
    },
    {
        "stationname":  "Dagenham Heathway Underground Station",
        "lat":  51.541765,
        "lng":  0.14779
    },
    {
        "stationname":  "Dollis Hill Underground Station",
        "lat":  51.552505,
        "lng":  -0.238757
    },
    {
        "stationname":  "Elephant \u0026 Castle Underground Station",
        "lat":  51.495732,
        "lng":  -0.100912
    },
    {
        "stationname":  "Eastcote Underground Station",
        "lat":  51.576449,
        "lng":  -0.397249
    },
    {
        "stationname":  "East Acton Underground Station",
        "lat":  51.516593,
        "lng":  -0.247493
    },
    {
        "stationname":  "Ealing Common Underground Station",
        "lat":  51.510324,
        "lng":  -0.288172
    },
    {
        "stationname":  "Earl\u0027s Court Underground Station",
        "lat":  51.492208,
        "lng":  -0.193183
    },
    {
        "stationname":  "East Finchley Underground Station",
        "lat":  51.587046,
        "lng":  -0.164276
    },
    {
        "stationname":  "East Ham Underground Station",
        "lat":  51.539293,
        "lng":  0.051283
    },
    {
        "stationname":  "Embankment Underground Station",
        "lat":  51.507385,
        "lng":  -0.122562
    },
    {
        "stationname":  "Elm Park Underground Station",
        "lat":  51.549922,
        "lng":  0.199237
    },
    {
        "stationname":  "East Putney Underground Station",
        "lat":  51.459168,
        "lng":  -0.210741
    },
    {
        "stationname":  "Edgware Road (Bakerloo Line) Underground Station",
        "lat":  51.520161,
        "lng":  -0.170181
    },
    {
        "stationname":  "Edgware Road (Circle Line) Underground Station",
        "lat":  51.519677,
        "lng":  -0.168024
    },
    {
        "stationname":  "Euston Square Underground Station",
        "lat":  51.525363,
        "lng":  -0.135619
    },
    {
        "stationname":  "Fulham Broadway Underground Station",
        "lat":  51.480102,
        "lng":  -0.195404
    },
    {
        "stationname":  "Farringdon Underground Station",
        "lat":  51.520065,
        "lng":  -0.104728
    },
    {
        "stationname":  "Fairlop Underground Station",
        "lat":  51.595576,
        "lng":  0.090724
    },
    {
        "stationname":  "Finsbury Park Underground Station",
        "lat":  51.565213,
        "lng":  -0.107786
    },
    {
        "stationname":  "Finchley Central Underground Station",
        "lat":  51.601096,
        "lng":  -0.192344
    },
    {
        "stationname":  "Finchley Road Underground Station",
        "lat":  51.546883,
        "lng":  -0.179753
    },
    {
        "stationname":  "Goodge Street Underground Station",
        "lat":  51.520678,
        "lng":  -0.134498
    },
    {
        "stationname":  "Golders Green Underground Station",
        "lat":  51.572037,
        "lng":  -0.194406
    },
    {
        "stationname":  "Goldhawk Road Underground Station",
        "lat":  51.501937,
        "lng":  -0.227307
    },
    {
        "stationname":  "Green Park Underground Station",
        "lat":  51.506544,
        "lng":  -0.143174
    },
    {
        "stationname":  "Great Portland Street Underground Station",
        "lat":  51.523894,
        "lng":  -0.143968
    },
    {
        "stationname":  "Gants Hill Underground Station",
        "lat":  51.577459,
        "lng":  0.065616
    },
    {
        "stationname":  "Gloucester Road Underground Station",
        "lat":  51.494337,
        "lng":  -0.182582
    },
    {
        "stationname":  "Holborn Underground Station",
        "lat":  51.517356,
        "lng":  -0.120206
    },
    {
        "stationname":  "High Barnet Underground Station",
        "lat":  51.65047,
        "lng":  -0.194413
    },
    {
        "stationname":  "Hornchurch Underground Station",
        "lat":  51.554104,
        "lng":  0.219261
    },
    {
        "stationname":  "Hendon Central Underground Station",
        "lat":  51.582991,
        "lng":  -0.22694
    },
    {
        "stationname":  "Hillingdon Underground Station",
        "lat":  51.553648,
        "lng":  -0.449748
    },
    {
        "stationname":  "Hanger Lane Underground Station",
        "lat":  51.530138,
        "lng":  -0.292749
    },
    {
        "stationname":  "Highgate Underground Station",
        "lat":  51.577821,
        "lng":  -0.145524
    },
    {
        "stationname":  "Hatton Cross Underground Station",
        "lat":  51.466532,
        "lng":  -0.422958
    },
    {
        "stationname":  "Hyde Park Corner Underground Station",
        "lat":  51.504939,
        "lng":  -0.15203
    },
    {
        "stationname":  "Holland Park Underground Station",
        "lat":  51.507363,
        "lng":  -0.205625
    },
    {
        "stationname":  "Heathrow Terminals 1-2-3 Underground Station",
        "lat":  51.47146,
        "lng":  -0.454696
    },
    {
        "stationname":  "Hammersmith (H\u0026C Line) Underground Station",
        "lat":  51.493387,
        "lng":  -0.225032
    },
    {
        "stationname":  "Hammersmith (Dist\u0026Picc Line) Underground Station",
        "lat":  51.492397,
        "lng":  -0.224379
    },
    {
        "stationname":  "High Street Kensington Underground Station",
        "lat":  51.501035,
        "lng":  -0.19292
    },
    {
        "stationname":  "Hampstead Underground Station",
        "lat":  51.556601,
        "lng":  -0.178428
    },
    {
        "stationname":  "Hounslow Central Underground Station",
        "lat":  51.471206,
        "lng":  -0.367016
    },
    {
        "stationname":  "Hounslow East Underground Station",
        "lat":  51.473312,
        "lng":  -0.356804
    },
    {
        "stationname":  "Hounslow West Underground Station",
        "lat":  51.473056,
        "lng":  -0.385626
    },
    {
        "stationname":  "Holloway Road Underground Station",
        "lat":  51.55291,
        "lng":  -0.11274
    },
    {
        "stationname":  "Ickenham Underground Station",
        "lat":  51.562024,
        "lng":  -0.441889
    },
    {
        "stationname":  "Kilburn Underground Station",
        "lat":  51.547021,
        "lng":  -0.203906
    },
    {
        "stationname":  "Kingsbury Underground Station",
        "lat":  51.584985,
        "lng":  -0.278698
    },
    {
        "stationname":  "Knightsbridge Underground Station",
        "lat":  51.501877,
        "lng":  -0.160885
    },
    {
        "stationname":  "Kennington Underground Station",
        "lat":  51.488347,
        "lng":  -0.105799
    },
    {
        "stationname":  "Kilburn Park Underground Station",
        "lat":  51.535055,
        "lng":  -0.193578
    },
    {
        "stationname":  "King\u0027s Cross St.Pancras Underground Station",
        "lat":  51.530159,
        "lng":  -0.123427
    },
    {
        "stationname":  "Ladbroke Grove Underground Station",
        "lat":  51.517431,
        "lng":  -0.210072
    },
    {
        "stationname":  "Lambeth North Underground Station",
        "lat":  51.498855,
        "lng":  -0.112207
    },
    {
        "stationname":  "Lancaster Gate Underground Station",
        "lat":  51.51169,
        "lng":  -0.175421
    },
    {
        "stationname":  "London Bridge Underground Station",
        "lat":  51.505994,
        "lng":  -0.088236
    },
    {
        "stationname":  "Latimer Road Underground Station",
        "lat":  51.513706,
        "lng":  -0.217626
    },
    {
        "stationname":  "Leicester Square Underground Station",
        "lat":  51.511263,
        "lng":  -0.128369
    },
    {
        "stationname":  "Leyton Underground Station",
        "lat":  51.556501,
        "lng":  -0.005808
    },
    {
        "stationname":  "Leytonstone Underground Station",
        "lat":  51.568365,
        "lng":  0.007194
    },
    {
        "stationname":  "Marble Arch Underground Station",
        "lat":  51.51353,
        "lng":  -0.160776
    },
    {
        "stationname":  "Morden Underground Station",
        "lat":  51.402034,
        "lng":  -0.194684
    },
    {
        "stationname":  "Mile End Underground Station",
        "lat":  51.525258,
        "lng":  -0.033397
    },
    {
        "stationname":  "Mill Hill East Underground Station",
        "lat":  51.608279,
        "lng":  -0.209765
    },
    {
        "stationname":  "Monument Underground Station",
        "lat":  51.510516,
        "lng":  -0.085957
    },
    {
        "stationname":  "Manor House Underground Station",
        "lat":  51.571089,
        "lng":  -0.0963
    },
    {
        "stationname":  "Mansion House Underground Station",
        "lat":  51.512165,
        "lng":  -0.093887
    },
    {
        "stationname":  "Mornington Crescent Underground Station",
        "lat":  51.534132,
        "lng":  -0.139125
    },
    {
        "stationname":  "Maida Vale Underground Station",
        "lat":  51.52982,
        "lng":  -0.18587
    },
    {
        "stationname":  "North Acton Underground Station",
        "lat":  51.523466,
        "lng":  -0.259757
    },
    {
        "stationname":  "Newbury Park Underground Station",
        "lat":  51.575568,
        "lng":  0.090657
    },
    {
        "stationname":  "Neasden Underground Station",
        "lat":  51.554027,
        "lng":  -0.249762
    },
    {
        "stationname":  "North Ealing Underground Station",
        "lat":  51.517559,
        "lng":  -0.289155
    },
    {
        "stationname":  "Northfields Underground Station",
        "lat":  51.499276,
        "lng":  -0.314549
    },
    {
        "stationname":  "North Greenwich Underground Station",
        "lat":  51.50027,
        "lng":  0.004632
    },
    {
        "stationname":  "North Harrow Underground Station",
        "lat":  51.584919,
        "lng":  -0.362018
    },
    {
        "stationname":  "Notting Hill Gate Underground Station",
        "lat":  51.50907,
        "lng":  -0.196695
    },
    {
        "stationname":  "Northolt Underground Station",
        "lat":  51.548197,
        "lng":  -0.368069
    },
    {
        "stationname":  "Northwick Park Underground Station",
        "lat":  51.578714,
        "lng":  -0.318178
    },
    {
        "stationname":  "Northwood Underground Station",
        "lat":  51.611158,
        "lng":  -0.423685
    },
    {
        "stationname":  "Northwood Hills Underground Station",
        "lat":  51.600777,
        "lng":  -0.40946
    },
    {
        "stationname":  "Oakwood Underground Station",
        "lat":  51.647643,
        "lng":  -0.13208
    },
    {
        "stationname":  "Osterley Underground Station",
        "lat":  51.480901,
        "lng":  -0.35162
    },
    {
        "stationname":  "Oval Underground Station",
        "lat":  51.481935,
        "lng":  -0.112489
    },
    {
        "stationname":  "Oxford Circus Underground Station",
        "lat":  51.515377,
        "lng":  -0.142167
    },
    {
        "stationname":  "Paddington Underground Station",
        "lat":  51.515498,
        "lng":  -0.175701
    },
    {
        "stationname":  "Paddington (H\u0026C Line) Underground Station",
        "lat":  51.51688,
        "lng":  -0.177217
    },
    {
        "stationname":  "Piccadilly Circus Underground Station",
        "lat":  51.510239,
        "lng":  -0.135199
    },
    {
        "stationname":  "Pimlico Underground Station",
        "lat":  51.488966,
        "lng":  -0.133719
    },
    {
        "stationname":  "Park Royal Underground Station",
        "lat":  51.527072,
        "lng":  -0.28417
    },
    {
        "stationname":  "Plaistow Underground Station",
        "lat":  51.53129,
        "lng":  0.018049
    },
    {
        "stationname":  "Pinner Underground Station",
        "lat":  51.593007,
        "lng":  -0.381102
    },
    {
        "stationname":  "Preston Road Underground Station",
        "lat":  51.571786,
        "lng":  -0.294869
    },
    {
        "stationname":  "Parsons Green Underground Station",
        "lat":  51.475461,
        "lng":  -0.201204
    },
    {
        "stationname":  "Perivale Underground Station",
        "lat":  51.536776,
        "lng":  -0.324007
    },
    {
        "stationname":  "Putney Bridge Underground Station",
        "lat":  51.467948,
        "lng":  -0.209159
    },
    {
        "stationname":  "Queensbury Underground Station",
        "lat":  51.594104,
        "lng":  -0.285515
    },
    {
        "stationname":  "Queensway Underground Station",
        "lat":  51.510622,
        "lng":  -0.187166
    },
    {
        "stationname":  "Redbridge Underground Station",
        "lat":  51.576291,
        "lng":  0.045573
    },
    {
        "stationname":  "Regent\u0027s Park Underground Station",
        "lat":  51.523596,
        "lng":  -0.146705
    },
    {
        "stationname":  "Ruislip Gardens Underground Station",
        "lat":  51.560613,
        "lng":  -0.411093
    },
    {
        "stationname":  "Ruislip Manor Underground Station",
        "lat":  51.573146,
        "lng":  -0.412907
    },
    {
        "stationname":  "Ruislip Underground Station",
        "lat":  51.571577,
        "lng":  -0.421317
    },
    {
        "stationname":  "Russell Square Underground Station",
        "lat":  51.523186,
        "lng":  -0.124348
    },
    {
        "stationname":  "Ravenscourt Park Underground Station",
        "lat":  51.494065,
        "lng":  -0.236559
    },
    {
        "stationname":  "Roding Valley Underground Station",
        "lat":  51.617351,
        "lng":  0.043562
    },
    {
        "stationname":  "Rayners Lane Underground Station",
        "lat":  51.57496,
        "lng":  -0.370761
    },
    {
        "stationname":  "Royal Oak Underground Station",
        "lat":  51.519118,
        "lng":  -0.188774
    },
    {
        "stationname":  "Shepherd\u0027s Bush (Central Line) Underground Stn",
        "lat":  51.504631,
        "lng":  -0.218139
    },
    {
        "stationname":  "Shepherd\u0027s Bush Market Underground Station",
        "lat":  51.505708,
        "lng":  -0.226268
    },
    {
        "stationname":  "South Ealing Underground Station",
        "lat":  51.501386,
        "lng":  -0.306849
    },
    {
        "stationname":  "Stamford Brook Underground Station",
        "lat":  51.495,
        "lng":  -0.24678
    },
    {
        "stationname":  "Southfields Underground Station",
        "lat":  51.444868,
        "lng":  -0.206536
    },
    {
        "stationname":  "Stepney Green Underground Station",
        "lat":  51.521809,
        "lng":  -0.046606
    },
    {
        "stationname":  "Southgate Underground Station",
        "lat":  51.632327,
        "lng":  -0.128056
    },
    {
        "stationname":  "South Harrow Underground Station",
        "lat":  51.564922,
        "lng":  -0.352594
    },
    {
        "stationname":  "St. James\u0027s Park Underground Station",
        "lat":  51.499631,
        "lng":  -0.133125
    },
    {
        "stationname":  "St John\u0027s Wood Underground Station",
        "lat":  51.534548,
        "lng":  -0.174146
    },
    {
        "stationname":  "South Kensington Underground Station",
        "lat":  51.493847,
        "lng":  -0.173036
    },
    {
        "stationname":  "Stockwell Underground Station",
        "lat":  51.472251,
        "lng":  -0.122651
    },
    {
        "stationname":  "Snaresbrook Underground Station",
        "lat":  51.581035,
        "lng":  0.021436
    },
    {
        "stationname":  "St. Paul\u0027s Underground Station",
        "lat":  51.515103,
        "lng":  -0.097079
    },
    {
        "stationname":  "Sloane Square Underground Station",
        "lat":  51.492493,
        "lng":  -0.156624
    },
    {
        "stationname":  "Stanmore Underground Station",
        "lat":  51.619729,
        "lng":  -0.30317
    },
    {
        "stationname":  "Sudbury Hill Underground Station",
        "lat":  51.556239,
        "lng":  -0.336261
    },
    {
        "stationname":  "Sudbury Town Underground Station",
        "lat":  51.550374,
        "lng":  -0.315921
    },
    {
        "stationname":  "Seven Sisters Underground Station",
        "lat":  51.581895,
        "lng":  -0.075179
    },
    {
        "stationname":  "Swiss Cottage Underground Station",
        "lat":  51.543609,
        "lng":  -0.17511
    },
    {
        "stationname":  "South Woodford Underground Station",
        "lat":  51.591934,
        "lng":  0.027695
    },
    {
        "stationname":  "Southwark Underground Station",
        "lat":  51.50377,
        "lng":  -0.104684
    },
    {
        "stationname":  "South Wimbledon Underground Station",
        "lat":  51.415273,
        "lng":  -0.192508
    },
    {
        "stationname":  "Totteridge \u0026 Whetstone Underground Station",
        "lat":  51.630192,
        "lng":  -0.179281
    },
    {
        "stationname":  "Tooting Bec Underground Station",
        "lat":  51.435496,
        "lng":  -0.159452
    },
    {
        "stationname":  "Tooting Broadway Underground Station",
        "lat":  51.427934,
        "lng":  -0.168086
    },
    {
        "stationname":  "Tottenham Court Road Underground Station",
        "lat":  51.516335,
        "lng":  -0.130611
    },
    {
        "stationname":  "Tufnell Park Underground Station",
        "lat":  51.556725,
        "lng":  -0.138159
    },
    {
        "stationname":  "Temple Underground Station",
        "lat":  51.511015,
        "lng":  -0.113967
    },
    {
        "stationname":  "Turnham Green Underground Station",
        "lat":  51.495387,
        "lng":  -0.255208
    },
    {
        "stationname":  "Turnpike Lane Underground Station",
        "lat":  51.590485,
        "lng":  -0.102896
    },
    {
        "stationname":  "Tower Hill Underground Station",
        "lat":  51.510204,
        "lng":  -0.076805
    },
    {
        "stationname":  "Upminster Bridge Underground Station",
        "lat":  51.559013,
        "lng":  0.23589
    },
    {
        "stationname":  "Upton Park Underground Station",
        "lat":  51.53549,
        "lng":  0.035221
    },
    {
        "stationname":  "Upney Underground Station",
        "lat":  51.538493,
        "lng":  0.101575
    },
    {
        "stationname":  "Uxbridge Underground Station",
        "lat":  51.546048,
        "lng":  -0.479212
    },
    {
        "stationname":  "Vauxhall Underground Station",
        "lat":  51.48632,
        "lng":  -0.12458
    },
    {
        "stationname":  "White City Underground Station",
        "lat":  51.51197,
        "lng":  -0.224742
    },
    {
        "stationname":  "West Finchley Underground Station",
        "lat":  51.609591,
        "lng":  -0.188627
    },
    {
        "stationname":  "West Hampstead Underground Station",
        "lat":  51.546778,
        "lng":  -0.191022
    },
    {
        "stationname":  "West Harrow Underground Station",
        "lat":  51.580154,
        "lng":  -0.353126
    },
    {
        "stationname":  "Willesden Green Underground Station",
        "lat":  51.54925,
        "lng":  -0.22094
    },
    {
        "stationname":  "Wimbledon Park Underground Station",
        "lat":  51.434627,
        "lng":  -0.199614
    },
    {
        "stationname":  "Warwick Avenue Underground Station",
        "lat":  51.523365,
        "lng":  -0.183661
    },
    {
        "stationname":  "West Kensington Underground Station",
        "lat":  51.490709,
        "lng":  -0.206855
    },
    {
        "stationname":  "Wood Lane Underground Station",
        "lat":  51.509674,
        "lng":  -0.224499
    },
    {
        "stationname":  "Waterloo Underground Station",
        "lat":  51.503818,
        "lng":  -0.113285
    },
    {
        "stationname":  "Woodford Underground Station",
        "lat":  51.607452,
        "lng":  0.0336
    },
    {
        "stationname":  "Wood Green Underground Station",
        "lat":  51.597307,
        "lng":  -0.109961
    },
    {
        "stationname":  "Woodside Park Underground Station",
        "lat":  51.617963,
        "lng":  -0.185159
    },
    {
        "stationname":  "Warren Street Underground Station",
        "lat":  51.524573,
        "lng":  -0.137986
    },
    {
        "stationname":  "Wanstead Underground Station",
        "lat":  51.575601,
        "lng":  0.028324
    },
    {
        "stationname":  "Westminster Underground Station",
        "lat":  51.501253,
        "lng":  -0.123765
    },
    {
        "stationname":  "Westbourne Park Underground Station",
        "lat":  51.520911,
        "lng":  -0.200667
    },
    {
        "stationname":  "West Acton Underground Station",
        "lat":  51.5179,
        "lng":  -0.281085
    },
    {
        "stationname":  "Wembley Park Underground Station",
        "lat":  51.562978,
        "lng":  -0.27976
    },
    {
        "stationname":  "Abbey Wood (London) Rail Station",
        "lat":  51.49106077233825,
        "lng":  0.12139406825466238
    },
    {
        "stationname":  "Acton Central Rail Station",
        "lat":  51.50871458596974,
        "lng":  -0.26297064738547565
    },
    {
        "stationname":  "Acton Main Line Rail Station",
        "lat":  51.517178453726515,
        "lng":  -0.2667563941826026
    },
    {
        "stationname":  "Addlestone Rail Station",
        "lat":  51.37304396682443,
        "lng":  -0.48445674177457004
    },
    {
        "stationname":  "Albany Park Rail Station",
        "lat":  51.43545095675563,
        "lng":  0.12573710874547073
    },
    {
        "stationname":  "Alexandra Palace Rail Station",
        "lat":  51.597922306558495,
        "lng":  -0.12023517714781089
    },
    {
        "stationname":  "Amersham Rail Station",
        "lat":  51.67420411424284,
        "lng":  -0.6075960754769536
    },
    {
        "stationname":  "Anerley Rail Station",
        "lat":  51.41215128843626,
        "lng":  -0.06588588007483309
    },
    {
        "stationname":  "Angel Road Rail Station",
        "lat":  51.61240323826779,
        "lng":  -0.04879138108674706
    },
    {
        "stationname":  "Apsley Rail Station",
        "lat":  51.73252007767139,
        "lng":  -0.46293475732772077
    },
    {
        "stationname":  "Ashford (Surrey) Rail Station",
        "lat":  51.43650550262146,
        "lng":  -0.4680709409780283
    },
    {
        "stationname":  "Ashtead Rail Station",
        "lat":  51.31787209445555,
        "lng":  -0.30757171673916983
    },
    {
        "stationname":  "Balham Rail Station",
        "lat":  51.44322317750702,
        "lng":  -0.15242445260626655
    },
    {
        "stationname":  "Banstead Rail Station",
        "lat":  51.32934714615562,
        "lng":  -0.21315888719463666
    },
    {
        "stationname":  "Barking Rail Station",
        "lat":  51.5394930220402,
        "lng":  0.08090246836220241
    },
    {
        "stationname":  "Barnes Rail Station",
        "lat":  51.467084392297004,
        "lng":  -0.24216424494910205
    },
    {
        "stationname":  "Battersea Park Rail Station",
        "lat":  51.47695805840253,
        "lng":  -0.14753347656293508
    },
    {
        "stationname":  "Bayford Rail Station",
        "lat":  51.75771474690899,
        "lng":  -0.09560997782222533
    },
    {
        "stationname":  "Beckenham Hill Rail Station",
        "lat":  51.42458085150823,
        "lng":  -0.015951072164818635
    },
    {
        "stationname":  "Beckenham Junction Rail Station",
        "lat":  51.411033409402286,
        "lng":  -0.02581278320205452
    },
    {
        "stationname":  "Beckenham Junction Rail Station",
        "lat":  51.41117183434547,
        "lng":  -0.026022521801341385
    },
    {
        "stationname":  "Bricket Wood Rail Station",
        "lat":  51.70542620722674,
        "lng":  -0.3591149906268384
    },
    {
        "stationname":  "Belmont Rail Station",
        "lat":  51.34381310063904,
        "lng":  -0.19885508057997506
    },
    {
        "stationname":  "Bellingham Rail Station",
        "lat":  51.43291136174407,
        "lng":  -0.01933076631528386
    },
    {
        "stationname":  "Belvedere Rail Station",
        "lat":  51.49211650394972,
        "lng":  0.15228614231093812
    },
    {
        "stationname":  "Berkhamsted Rail Station",
        "lat":  51.76313217382789,
        "lng":  -0.5620129207729188
    },
    {
        "stationname":  "Bexley Rail Station",
        "lat":  51.44021778017626,
        "lng":  0.14790253791801977
    },
    {
        "stationname":  "Bush Hill Park Rail Station",
        "lat":  51.6415168513051,
        "lng":  -0.0692210720993178
    },
    {
        "stationname":  "Bickley Rail Station",
        "lat":  51.40010251584657,
        "lng":  0.04524058237983466
    },
    {
        "stationname":  "Birkbeck Rail Station",
        "lat":  51.40388990109873,
        "lng":  -0.05573869868857203
    },
    {
        "stationname":  "Blackhorse Road Rail Station",
        "lat":  51.58660379208553,
        "lng":  -0.04123570111937969
    },
    {
        "stationname":  "London Blackfriars Rail Station",
        "lat":  51.511808036433315,
        "lng":  -0.10333203047893559
    },
    {
        "stationname":  "Blackheath Rail Station",
        "lat":  51.46579454536947,
        "lng":  0.00887191278287654
    },
    {
        "stationname":  "Barnes Bridge Rail Station",
        "lat":  51.472006827609995,
        "lng":  -0.25263018896199274
    },
    {
        "stationname":  "Brentford Rail Station",
        "lat":  51.4875452134824,
        "lng":  -0.3096509488535447
    },
    {
        "stationname":  "Bookham Rail Station",
        "lat":  51.28873695804651,
        "lng":  -0.38402063488772803
    },
    {
        "stationname":  "Bowes Park Rail Station",
        "lat":  51.607010189937576,
        "lng":  -0.12058191162509424
    },
    {
        "stationname":  "Box Hill \u0026 Westhumble Rail Station",
        "lat":  51.25401015132327,
        "lng":  -0.32848990545361445
    },
    {
        "stationname":  "Brondesbury Rail Station",
        "lat":  51.54516400126535,
        "lng":  -0.20230868976484317
    },
    {
        "stationname":  "Brondesbury Park Rail Station",
        "lat":  51.540697429890486,
        "lng":  -0.21012762059551002
    },
    {
        "stationname":  "Brimsdown Rail Station",
        "lat":  51.655581678331764,
        "lng":  -0.030817391061136446
    },
    {
        "stationname":  "Brixton Rail Station",
        "lat":  51.46329723071698,
        "lng":  -0.1141834367811344
    },
    {
        "stationname":  "Brookmans Park Rail Station",
        "lat":  51.721060080513396,
        "lng":  -0.20454868443726695
    },
    {
        "stationname":  "Berrylands Rail Station",
        "lat":  51.39904348747444,
        "lng":  -0.28071362166702063
    },
    {
        "stationname":  "Barnehurst Rail Station",
        "lat":  51.46495743182783,
        "lng":  0.15964625939875626
    },
    {
        "stationname":  "Brockley Rail Station",
        "lat":  51.46464715079929,
        "lng":  -0.037536650585448396
    },
    {
        "stationname":  "Bromley North Rail Station",
        "lat":  51.40832602430731,
        "lng":  0.01699267750593413
    },
    {
        "stationname":  "Bromley South Rail Station",
        "lat":  51.39997461721304,
        "lng":  0.017344070192479934
    },
    {
        "stationname":  "Broxbourne Rail Station",
        "lat":  51.74690871301111,
        "lng":  -0.011086681164485067
    },
    {
        "stationname":  "Bruce Grove Rail Station",
        "lat":  51.59395743280839,
        "lng":  -0.06986702788662691
    },
    {
        "stationname":  "Betchworth Rail Station",
        "lat":  51.248187505972766,
        "lng":  -0.2669729698300078
    },
    {
        "stationname":  "Bethnal Green Rail Station",
        "lat":  51.5239155760855,
        "lng":  -0.05956800424997549
    },
    {
        "stationname":  "Bushey Rail Station",
        "lat":  51.64557988920274,
        "lng":  -0.38474910591526257
    },
    {
        "stationname":  "Bushey Rail Station",
        "lat":  51.64574961426996,
        "lng":  -0.3853212187360075
    },
    {
        "stationname":  "Bexleyheath Rail Station",
        "lat":  51.463498453504016,
        "lng":  0.13373491404445184
    },
    {
        "stationname":  "Byfleet \u0026 New Haw Rail Station",
        "lat":  51.34979494947991,
        "lng":  -0.48138971266758607
    },
    {
        "stationname":  "Cambridge Heath (London) Rail Station",
        "lat":  51.53197101210209,
        "lng":  -0.057279024406180164
    },
    {
        "stationname":  "London Cannon Street Rail Station",
        "lat":  51.51138062837296,
        "lng":  -0.09029293803144478
    },
    {
        "stationname":  "Caterham Rail Station",
        "lat":  51.28213979162252,
        "lng":  -0.07830708042368244
    },
    {
        "stationname":  "Catford Bridge Rail Station",
        "lat":  51.444739041606205,
        "lng":  -0.024791134857277665
    },
    {
        "stationname":  "Catford Rail Station",
        "lat":  51.44440502700715,
        "lng":  -0.026316556248755115
    },
    {
        "stationname":  "Castle Bar Park Rail Station",
        "lat":  51.5229288100669,
        "lng":  -0.33154889230896145
    },
    {
        "stationname":  "Cobham \u0026 Stoke d\u0027Abernon Rail Station",
        "lat":  51.31809903849615,
        "lng":  -0.3893463232349481
    },
    {
        "stationname":  "Crofton Park Rail Station",
        "lat":  51.45518750676597,
        "lng":  -0.036503003559491584
    },
    {
        "stationname":  "Chadwell Heath Rail Station",
        "lat":  51.568037068415684,
        "lng":  0.1289584057143003
    },
    {
        "stationname":  "Cheam Rail Station",
        "lat":  51.35547722076099,
        "lng":  -0.21416747906908704
    },
    {
        "stationname":  "Cheshunt Rail Station",
        "lat":  51.70287450294368,
        "lng":  -0.023959682372550285
    },
    {
        "stationname":  "Chingford Rail Station",
        "lat":  51.63308498295842,
        "lng":  0.009897081985558706
    },
    {
        "stationname":  "Chiswick Rail Station",
        "lat":  51.48113492301653,
        "lng":  -0.2678351603488042
    },
    {
        "stationname":  "Chalfont \u0026 Latimer Rail Station",
        "lat":  51.66810675196108,
        "lng":  -0.5605263376574448
    },
    {
        "stationname":  "Chelsfield Rail Station",
        "lat":  51.35625423601656,
        "lng":  0.1090698570930978
    },
    {
        "stationname":  "Chilworth Rail Station",
        "lat":  51.21521146581492,
        "lng":  -0.5248240801143712
    },
    {
        "stationname":  "Chorleywood Rail Station",
        "lat":  51.65424693086238,
        "lng":  -0.518320004700167
    },
    {
        "stationname":  "London Charing Cross Rail Station",
        "lat":  51.508025700845536,
        "lng":  -0.12480214653205114
    },
    {
        "stationname":  "Chipstead Rail Station",
        "lat":  51.30927561174614,
        "lng":  -0.1695031825324281
    },
    {
        "stationname":  "Chislehurst Rail Station",
        "lat":  51.405554845776265,
        "lng":  0.05741801070970438
    },
    {
        "stationname":  "Chessington North Rail Station",
        "lat":  51.364039367189726,
        "lng":  -0.30069909121123617
    },
    {
        "stationname":  "Chessington South Rail Station",
        "lat":  51.35654861643658,
        "lng":  -0.3081575271443738
    },
    {
        "stationname":  "Chertsey Rail Station",
        "lat":  51.387067162753155,
        "lng":  -0.5093165696624836
    },
    {
        "stationname":  "Clandon Rail Station",
        "lat":  51.264003556255176,
        "lng":  -0.5027660532149064
    },
    {
        "stationname":  "Clapton Rail Station",
        "lat":  51.56164224138929,
        "lng":  -0.05702461517969924
    },
    {
        "stationname":  "Caledonian Road \u0026 Barnsbury Rail Station",
        "lat":  51.54303910381948,
        "lng":  -0.11672920703786016
    },
    {
        "stationname":  "Clock House Rail Station",
        "lat":  51.408584716089976,
        "lng":  -0.040657023026136926
    },
    {
        "stationname":  "Clapham High Street Rail Station",
        "lat":  51.46547921097168,
        "lng":  -0.13252164335780237
    },
    {
        "stationname":  "Clapham Junction Rail Station",
        "lat":  51.46418520576958,
        "lng":  -0.17022143524490171
    },
    {
        "stationname":  "Clapham Junction Rail Station",
        "lat":  51.464186328456975,
        "lng":  -0.17029337289133772
    },
    {
        "stationname":  "Clapham Junction Rail Station",
        "lat":  51.464186103923026,
        "lng":  -0.17027898536167863
    },
    {
        "stationname":  "Clapham Junction Rail Station",
        "lat":  51.464185879387315,
        "lng":  -0.17026459783220455
    },
    {
        "stationname":  "Clapham Junction Rail Station",
        "lat":  51.464185654849835,
        "lng":  -0.17025021030291748
    },
    {
        "stationname":  "Claygate Rail Station",
        "lat":  51.36121231451895,
        "lng":  -0.3482477467281541
    },
    {
        "stationname":  "Camden Road Rail Station",
        "lat":  51.54178909549575,
        "lng":  -0.13870085821638212
    },
    {
        "stationname":  "Canada Water Rail Station",
        "lat":  51.49798839469483,
        "lng":  -0.04971979465549667
    },
    {
        "stationname":  "Canonbury Rail Station",
        "lat":  51.54873055593578,
        "lng":  -0.0921908871260911
    },
    {
        "stationname":  "Coulsdon South Rail Station",
        "lat":  51.31583644880312,
        "lng":  -0.1378872513592824
    },
    {
        "stationname":  "Coulsdon Town Rail Station",
        "lat":  51.32204094266473,
        "lng":  -0.1344641885792678
    },
    {
        "stationname":  "Crayford Rail Station",
        "lat":  51.44827820812536,
        "lng":  0.17893611941140244
    },
    {
        "stationname":  "Crews Hill Rail Station",
        "lat":  51.68448413239358,
        "lng":  -0.10688705304221045
    },
    {
        "stationname":  "Cricklewood Rail Station",
        "lat":  51.55845126904982,
        "lng":  -0.21267659072156547
    },
    {
        "stationname":  "Charlton Rail Station",
        "lat":  51.48681159308534,
        "lng":  0.03125753293519419
    },
    {
        "stationname":  "Crouch Hill Rail Station",
        "lat":  51.571300188563065,
        "lng":  -0.11714877687655824
    },
    {
        "stationname":  "Carpenders Park Rail Station",
        "lat":  51.62834946402997,
        "lng":  -0.3859390593832388
    },
    {
        "stationname":  "Carshalton Beeches Rail Station",
        "lat":  51.35740925780215,
        "lng":  -0.16979700149191904
    },
    {
        "stationname":  "Carshalton Rail Station",
        "lat":  51.368452615539866,
        "lng":  -0.166368492889031
    },
    {
        "stationname":  "Crystal Palace Rail Station",
        "lat":  51.41810733793309,
        "lng":  -0.07260983693055637
    },
    {
        "stationname":  "Imperial Wharf Rail Station",
        "lat":  51.47494740233978,
        "lng":  -0.1828227128352402
    },
    {
        "stationname":  "City Thameslink Rail Station",
        "lat":  51.51393444319189,
        "lng":  -0.10358960130721262
    },
    {
        "stationname":  "Cuffley Rail Station",
        "lat":  51.708720039129005,
        "lng":  -0.109783369968957
    },
    {
        "stationname":  "Dalston Junction Rail Station",
        "lat":  51.546113941175186,
        "lng":  -0.07513752955135394
    },
    {
        "stationname":  "Dalston Kingsland Rail Station",
        "lat":  51.548146501911845,
        "lng":  -0.07570078470740016
    },
    {
        "stationname":  "Datchet Rail Station",
        "lat":  51.48307517533753,
        "lng":  -0.5794218493763615
    },
    {
        "stationname":  "Denham Rail Station",
        "lat":  51.57883555954766,
        "lng":  -0.4974367980816267
    },
    {
        "stationname":  "Denham Golf Club Rail Station",
        "lat":  51.580595978710555,
        "lng":  -0.5177866248496892
    },
    {
        "stationname":  "Denmark Hill Rail Station",
        "lat":  51.468200976285694,
        "lng":  -0.08936084226557142
    },
    {
        "stationname":  "Dorking Deepdene Rail Station",
        "lat":  51.23880248559835,
        "lng":  -0.32464313820836577
    },
    {
        "stationname":  "Deptford Rail Station",
        "lat":  51.47884633201911,
        "lng":  -0.026270172181407075
    },
    {
        "stationname":  "Dagenham Dock Rail Station",
        "lat":  51.52608797981468,
        "lng":  0.14610293141428116
    },
    {
        "stationname":  "Dorking Rail Station",
        "lat":  51.24092813619651,
        "lng":  -0.3242507347640234
    },
    {
        "stationname":  "Drayton Green Rail Station",
        "lat":  51.51661493083468,
        "lng":  -0.33019420423951396
    },
    {
        "stationname":  "Dorking West Rail Station",
        "lat":  51.23622427208037,
        "lng":  -0.33997851260602946
    },
    {
        "stationname":  "Drayton Park Rail Station",
        "lat":  51.55276818266098,
        "lng":  -0.10550896628462399
    },
    {
        "stationname":  "Dunton Green Rail Station",
        "lat":  51.29648855440758,
        "lng":  0.17093715969448067
    },
    {
        "stationname":  "Ealing Broadway Rail Station",
        "lat":  51.51483976268591,
        "lng":  -0.3017517216235657
    },
    {
        "stationname":  "Earlswood (Surrey) Rail Station",
        "lat":  51.22732675310433,
        "lng":  -0.17082302586475492
    },
    {
        "stationname":  "East Croydon Rail Station",
        "lat":  51.37545210576739,
        "lng":  -0.09277965869151633
    },
    {
        "stationname":  "Edmonton Green Rail Station",
        "lat":  51.6249270686284,
        "lng":  -0.061112452887308225
    },
    {
        "stationname":  "Edenbridge Rail Station",
        "lat":  51.20843391186015,
        "lng":  0.060646302530699844
    },
    {
        "stationname":  "Edenbridge Town Rail Station",
        "lat":  51.20008102312549,
        "lng":  0.06717305796805305
    },
    {
        "stationname":  "Eden Park Rail Station",
        "lat":  51.39008933277426,
        "lng":  -0.026355118551444012
    },
    {
        "stationname":  "East Dulwich Rail Station",
        "lat":  51.461492784663804,
        "lng":  -0.08057165895897114
    },
    {
        "stationname":  "Effingham Junction Rail Station",
        "lat":  51.29149363514411,
        "lng":  -0.4199653667005512
    },
    {
        "stationname":  "Egham Rail Station",
        "lat":  51.429645079795705,
        "lng":  -0.5465121745496583
    },
    {
        "stationname":  "Elmers End Rail Station",
        "lat":  51.39849065242397,
        "lng":  -0.0495703071968623
    },
    {
        "stationname":  "Elmstead Woods Rail Station",
        "lat":  51.41711590616176,
        "lng":  0.04427410109649454
    },
    {
        "stationname":  "Elephant \u0026 Castle Rail Station",
        "lat":  51.494027083416576,
        "lng":  -0.09872553398844479
    },
    {
        "stationname":  "Eltham Rail Station",
        "lat":  51.45564182759708,
        "lng":  0.052472373123960615
    },
    {
        "stationname":  "Elstree \u0026 Borehamwood Rail Station",
        "lat":  51.65306766916241,
        "lng":  -0.28008149360607537
    },
    {
        "stationname":  "Enfield Chase Rail Station",
        "lat":  51.65325239630149,
        "lng":  -0.09069632851242651
    },
    {
        "stationname":  "Enfield Lock Rail Station",
        "lat":  51.67092039962762,
        "lng":  -0.028532423405267206
    },
    {
        "stationname":  "Enfield Town Rail Station",
        "lat":  51.65202387044121,
        "lng":  -0.07932760017621529
    },
    {
        "stationname":  "Epsom Downs Rail Station",
        "lat":  51.323685804577416,
        "lng":  -0.2389548052520931
    },
    {
        "stationname":  "Epsom Rail Station",
        "lat":  51.334391031389536,
        "lng":  -0.268777634845822
    },
    {
        "stationname":  "Erith Rail Station",
        "lat":  51.48166923094684,
        "lng":  0.17505449269793005
    },
    {
        "stationname":  "Earlsfield Rail Station",
        "lat":  51.442335274954196,
        "lng":  -0.1877148910822838
    },
    {
        "stationname":  "Esher Rail Station",
        "lat":  51.37988940673079,
        "lng":  -0.35333778957809886
    },
    {
        "stationname":  "Essex Road Rail Station",
        "lat":  51.54070365228984,
        "lng":  -0.09627601704413816
    },
    {
        "stationname":  "Mitcham Eastfields Rail Station",
        "lat":  51.40773735358974,
        "lng":  -0.15464599310222835
    },
    {
        "stationname":  "London Euston Rail Station",
        "lat":  51.52813455226567,
        "lng":  -0.13392359297997164
    },
    {
        "stationname":  "Ewell East Rail Station",
        "lat":  51.345297846764346,
        "lng":  -0.24152959410452104
    },
    {
        "stationname":  "Ewell West Rail Station",
        "lat":  51.35004316181469,
        "lng":  -0.25698657456692087
    },
    {
        "stationname":  "Falconwood Rail Station",
        "lat":  51.459152776428745,
        "lng":  0.07930451928634757
    },
    {
        "stationname":  "Feltham Rail Station",
        "lat":  51.44789668372751,
        "lng":  -0.40983818923507565
    },
    {
        "stationname":  "London Fenchurch Street Rail Station",
        "lat":  51.51164414130327,
        "lng":  -0.0788967267553271
    },
    {
        "stationname":  "Finchley Road \u0026 Frognal Rail Station",
        "lat":  51.55026417355421,
        "lng":  -0.18314055671138765
    },
    {
        "stationname":  "Finsbury Park Rail Station",
        "lat":  51.564300081796866,
        "lng":  -0.10628493616462979
    },
    {
        "stationname":  "Forest Hill Rail Station",
        "lat":  51.43927841100304,
        "lng":  -0.0531570639526185
    },
    {
        "stationname":  "Farncombe Rail Station",
        "lat":  51.1971521425335,
        "lng":  -0.6045488161165679
    },
    {
        "stationname":  "Farringdon (London) Rail Station",
        "lat":  51.52016539942324,
        "lng":  -0.10520462728006888
    },
    {
        "stationname":  "Forest Gate Rail Station",
        "lat":  51.54943024864476,
        "lng":  0.02435285932607765
    },
    {
        "stationname":  "Fulwell Rail Station",
        "lat":  51.43393342083323,
        "lng":  -0.34946755870101714
    },
    {
        "stationname":  "Gerrards Cross Rail Station",
        "lat":  51.58902130746208,
        "lng":  -0.5552753622150809
    },
    {
        "stationname":  "Greenford Rail Station",
        "lat":  51.54232962742115,
        "lng":  -0.3458371547954032
    },
    {
        "stationname":  "Gipsy Hill Rail Station",
        "lat":  51.424451423070145,
        "lng":  -0.0838358772027423
    },
    {
        "stationname":  "Horsley Rail Station",
        "lat":  51.27934527891864,
        "lng":  -0.43540862303281935
    },
    {
        "stationname":  "Gunnersbury Rail Station",
        "lat":  51.49167593019606,
        "lng":  -0.2752863887509447
    },
    {
        "stationname":  "Greenwich Rail Station",
        "lat":  51.47813335596644,
        "lng":  -0.01333988531609968
    },
    {
        "stationname":  "Goodmayes Rail Station",
        "lat":  51.56557727869316,
        "lng":  0.11080711014002247
    },
    {
        "stationname":  "Godstone Rail Station",
        "lat":  51.21815574586131,
        "lng":  -0.05008495990397762
    },
    {
        "stationname":  "Gomshall Rail Station",
        "lat":  51.21939682812267,
        "lng":  -0.4418521421973507
    },
    {
        "stationname":  "Gordon Hill Rail Station",
        "lat":  51.66333346550253,
        "lng":  -0.09461046962784017
    },
    {
        "stationname":  "Gospel Oak Rail Station",
        "lat":  51.555333743888596,
        "lng":  -0.1507701436970547
    },
    {
        "stationname":  "Grange Park Rail Station",
        "lat":  51.64260565851008,
        "lng":  -0.09735846335326569
    },
    {
        "stationname":  "Garston (Herts) Rail Station",
        "lat":  51.68661407499953,
        "lng":  -0.3817411628203748
    },
    {
        "stationname":  "Grove Park Rail Station",
        "lat":  51.43086142389469,
        "lng":  0.021725523431686936
    },
    {
        "stationname":  "Guildford Rail Station",
        "lat":  51.2369684874608,
        "lng":  -0.5804249805369243
    },
    {
        "stationname":  "Hackney Central Rail Station",
        "lat":  51.54710325618515,
        "lng":  -0.056057572962477306
    },
    {
        "stationname":  "Hackney Wick Rail Station",
        "lat":  51.543408776486345,
        "lng":  -0.024919814682452277
    },
    {
        "stationname":  "Hadley Wood Rail Station",
        "lat":  51.66849516271055,
        "lng":  -0.17617251428740097
    },
    {
        "stationname":  "Haggerston Rail Station",
        "lat":  51.538703771863965,
        "lng":  -0.07566650875418417
    },
    {
        "stationname":  "Hackney Downs Rail Station",
        "lat":  51.548755752895545,
        "lng":  -0.060818976834393794
    },
    {
        "stationname":  "Hampton (London) Rail Station",
        "lat":  51.4159326816398,
        "lng":  -0.3721189145761033
    },
    {
        "stationname":  "Hampton Wick Rail Station",
        "lat":  51.41452279075048,
        "lng":  -0.3124894917234289
    },
    {
        "stationname":  "Hanwell Rail Station",
        "lat":  51.51183325456555,
        "lng":  -0.3385834562262175
    },
    {
        "stationname":  "Harlesden Rail Station",
        "lat":  51.53628744720681,
        "lng":  -0.2576675299995053
    },
    {
        "stationname":  "Harrow-on-the-Hill Rail Station",
        "lat":  51.57918393015009,
        "lng":  -0.33722539057569273
    },
    {
        "stationname":  "Hatfield (Herts) Rail Station",
        "lat":  51.76387780672752,
        "lng":  -0.2155885661142196
    },
    {
        "stationname":  "Hayes \u0026 Harlington Rail Station",
        "lat":  51.50309391852679,
        "lng":  -0.4206835028490484
    },
    {
        "stationname":  "Hayes (Kent) Rail Station",
        "lat":  51.376332151384375,
        "lng":  0.010556747884739611
    },
    {
        "stationname":  "Hampton Court Rail Station",
        "lat":  51.402553974235865,
        "lng":  -0.34274768251716364
    },
    {
        "stationname":  "Hendon Rail Station",
        "lat":  51.58006626592732,
        "lng":  -0.23867409661121733
    },
    {
        "stationname":  "Headstone Lane Rail Station",
        "lat":  51.60264729876637,
        "lng":  -0.3572197931068005
    },
    {
        "stationname":  "Hemel Hempstead Rail Station",
        "lat":  51.74233129483011,
        "lng":  -0.4907737670681052
    },
    {
        "stationname":  "Herne Hill Rail Station",
        "lat":  51.45330334156865,
        "lng":  -0.10228913069402135
    },
    {
        "stationname":  "Hersham Rail Station",
        "lat":  51.3768103494017,
        "lng":  -0.3899592140819869
    },
    {
        "stationname":  "Highbury \u0026 Islington Rail Station",
        "lat":  51.54617546325893,
        "lng":  -0.10376367684281629
    },
    {
        "stationname":  "Highams Park Rail Station",
        "lat":  51.608348493651036,
        "lng":  -0.00022222831470131277
    },
    {
        "stationname":  "Highbury \u0026 Islington Rail Station",
        "lat":  51.546085598609984,
        "lng":  -0.1037674130892094
    },
    {
        "stationname":  "Hackbridge Rail Station",
        "lat":  51.377870097711174,
        "lng":  -0.1539075143381794
    },
    {
        "stationname":  "Hampstead Heath Rail Station",
        "lat":  51.5552084895852,
        "lng":  -0.16570537992516424
    },
    {
        "stationname":  "Hinchley Wood Rail Station",
        "lat":  51.37499657607841,
        "lng":  -0.34052449253660194
    },
    {
        "stationname":  "Homerton Rail Station",
        "lat":  51.54701037107781,
        "lng":  -0.04235979398931181
    },
    {
        "stationname":  "Honor Oak Park Rail Station",
        "lat":  51.44998728932995,
        "lng":  -0.04550541270709297
    },
    {
        "stationname":  "Hounslow Rail Station",
        "lat":  51.46194443359487,
        "lng":  -0.3622769064992992
    },
    {
        "stationname":  "How Wood (Herts) Rail Station",
        "lat":  51.71774044976649,
        "lng":  -0.3446704041882601
    },
    {
        "stationname":  "Hoxton Rail Station",
        "lat":  51.53150997659379,
        "lng":  -0.07568153389467736
    },
    {
        "stationname":  "Harringay Rail Station",
        "lat":  51.57735658363759,
        "lng":  -0.10513609630818983
    },
    {
        "stationname":  "Harringay Green Lanes Rail Station",
        "lat":  51.57718051986717,
        "lng":  -0.09814373564747808
    },
    {
        "stationname":  "Hornsey Rail Station",
        "lat":  51.58645925943724,
        "lng":  -0.1119750224467641
    },
    {
        "stationname":  "Harrow \u0026 Wealdstone Rail Station",
        "lat":  51.592166995514454,
        "lng":  -0.3345714298963649
    },
    {
        "stationname":  "Harrow \u0026 Wealdstone Rail Station",
        "lat":  51.59217598303501,
        "lng":  -0.33457110120006234
    },
    {
        "stationname":  "Hurst Green Rail Station",
        "lat":  51.244428972999856,
        "lng":  0.003939365505969101
    },
    {
        "stationname":  "Hatch End Rail Station",
        "lat":  51.609415243429034,
        "lng":  -0.3686013928432622
    },
    {
        "stationname":  "Hither Green Rail Station",
        "lat":  51.45202358106216,
        "lng":  -0.00094421077161970489
    },
    {
        "stationname":  "Heathrow Airport Terminal 5",
        "lat":  51.47124909266278,
        "lng":  -0.48936879540196804
    },
    {
        "stationname":  "Heathrow Terminals 1-3 Rail Station",
        "lat":  51.471403988453304,
        "lng":  -0.45433264439066606
    },
    {
        "stationname":  "Heathrow Airport Central Bus Stn (Rail-Air)",
        "lat":  51.47109371389322,
        "lng":  -0.4533064579862901
    },
    {
        "stationname":  "Heathrow Terminal 4 (Rail-Air)",
        "lat":  51.4593289958412,
        "lng":  -0.4469675220870637
    },
    {
        "stationname":  "Heathrow Terminal 4 Rail Station",
        "lat":  51.45826596150022,
        "lng":  -0.44546342219612733
    },
    {
        "stationname":  "Heathrow Terminal 5 Rail Station",
        "lat":  51.47005085731497,
        "lng":  -0.49058899074686385
    },
    {
        "stationname":  "Haydons Road Rail Station",
        "lat":  51.425446255317596,
        "lng":  -0.188814666823031
    },
    {
        "stationname":  "Ilford Rail Station",
        "lat":  51.559115836480196,
        "lng":  0.06967948905731125
    },
    {
        "stationname":  "Isleworth Rail Station",
        "lat":  51.47476112778198,
        "lng":  -0.3369067559419882
    },
    {
        "stationname":  "Iver Rail Station",
        "lat":  51.50850112694706,
        "lng":  -0.506725973206409
    },
    {
        "stationname":  "Kensington (Olympia) Rail Station",
        "lat":  51.497897119949315,
        "lng":  -0.21036409542044712
    },
    {
        "stationname":  "Kensal Rise Rail Station",
        "lat":  51.53455231245652,
        "lng":  -0.21995707155233363
    },
    {
        "stationname":  "Kensal Green Rail Station",
        "lat":  51.530538513031,
        "lng":  -0.22508762012890338
    },
    {
        "stationname":  "Kent House Rail Station",
        "lat":  51.41221351852634,
        "lng":  -0.04524741014714096
    },
    {
        "stationname":  "Kew Bridge Rail Station",
        "lat":  51.48951116528061,
        "lng":  -0.287107582136929
    },
    {
        "stationname":  "Kew Gardens Rail Station",
        "lat":  51.47707164839388,
        "lng":  -0.2850535459978001
    },
    {
        "stationname":  "Kingston Rail Station",
        "lat":  51.41274955000001,
        "lng":  -0.30116574031002263
    },
    {
        "stationname":  "Kingswood Rail Station",
        "lat":  51.29472302236674,
        "lng":  -0.21124751699004218
    },
    {
        "stationname":  "Kidbrooke Rail Station",
        "lat":  51.462119600017324,
        "lng":  0.02749758153951242
    },
    {
        "stationname":  "Kilburn High Road Rail Station",
        "lat":  51.53727577847432,
        "lng":  -0.19223745491151079
    },
    {
        "stationname":  "Kings Langley Rail Station",
        "lat":  51.706354192954116,
        "lng":  -0.43842189610715526
    },
    {
        "stationname":  "Kempton Park Rail Station",
        "lat":  51.420981452366746,
        "lng":  -0.40975128232056524
    },
    {
        "stationname":  "Knockholt Rail Station",
        "lat":  51.345787845469154,
        "lng":  0.13084709666454453
    },
    {
        "stationname":  "London Kings Cross Rail Station",
        "lat":  51.530881646849046,
        "lng":  -0.12292594928897527
    },
    {
        "stationname":  "Kenley Rail Station",
        "lat":  51.32477524154969,
        "lng":  -0.10092538110507628
    },
    {
        "stationname":  "Kentish Town Rail Station",
        "lat":  51.55049321073576,
        "lng":  -0.1403649454169944
    },
    {
        "stationname":  "Kentish Town West Rail Station",
        "lat":  51.546546146346,
        "lng":  -0.14665547351842365
    },
    {
        "stationname":  "Kenton Rail Station",
        "lat":  51.581799847906524,
        "lng":  -0.31698088355681936
    },
    {
        "stationname":  "Langley (Berks) Rail Station",
        "lat":  51.50806060311299,
        "lng":  -0.5417561102505224
    },
    {
        "stationname":  "Loughborough Junction Rail Station",
        "lat":  51.466295950270045,
        "lng":  -0.10218204141250156
    },
    {
        "stationname":  "Ladywell Rail Station",
        "lat":  51.4562426286033,
        "lng":  -0.01904065238335364
    },
    {
        "stationname":  "Lea Bridge Rail Station",
        "lat":  51.56654611001222,
        "lng":  -0.03667256807545499
    },
    {
        "stationname":  "Lee Rail Station",
        "lat":  51.449753113957,
        "lng":  0.013492831721476198
    },
    {
        "stationname":  "Leatherhead Rail Station",
        "lat":  51.298816116145375,
        "lng":  -0.33323192923596173
    },
    {
        "stationname":  "Lewisham Rail Station",
        "lat":  51.465690045206294,
        "lng":  -0.01402438172615811
    },
    {
        "stationname":  "Leyton Midland Road Rail Station",
        "lat":  51.56972367372132,
        "lng":  -0.008050593039221815
    },
    {
        "stationname":  "Limehouse Rail Station",
        "lat":  51.51253499999089,
        "lng":  -0.0398028254218285
    },
    {
        "stationname":  "London Liverpool Street Rail Station",
        "lat":  51.51798933695222,
        "lng":  -0.08142598331124984
    },
    {
        "stationname":  "London Bridge Rail Station",
        "lat":  51.50501734713687,
        "lng":  -0.08609204407739525
    },
    {
        "stationname":  "London Bridge Rail Station",
        "lat":  51.50510721149598,
        "lng":  -0.08608827854908531
    },
    {
        "stationname":  "Longcross Rail Station",
        "lat":  51.38517114208699,
        "lng":  -0.594569946269754
    },
    {
        "stationname":  "London Fields Rail Station",
        "lat":  51.541151289529196,
        "lng":  -0.057753332222811614
    },
    {
        "stationname":  "London Road (Guildford) Rail Station",
        "lat":  51.24064800822992,
        "lng":  -0.5650689162765457
    },
    {
        "stationname":  "Lower Sydenham Rail Station",
        "lat":  51.42482906738522,
        "lng":  -0.03334544539363268
    },
    {
        "stationname":  "Leytonstone High Road Rail Station",
        "lat":  51.563552803653494,
        "lng":  0.008416433000144148
    },
    {
        "stationname":  "Malden Manor Rail Station",
        "lat":  51.38472830100356,
        "lng":  -0.26127393879283173
    },
    {
        "stationname":  "Manor Park Rail Station",
        "lat":  51.552474963648436,
        "lng":  0.04634157757254078
    },
    {
        "stationname":  "London Marylebone Rail Station",
        "lat":  51.52252219034856,
        "lng":  -0.16291086310624842
    },
    {
        "stationname":  "Maze Hill Rail Station",
        "lat":  51.48262296039062,
        "lng":  0.002914165918994355
    },
    {
        "stationname":  "Merstham Rail Station",
        "lat":  51.26415250978813,
        "lng":  -0.1502256405352357
    },
    {
        "stationname":  "Mitcham Junction Rail Station",
        "lat":  51.39294843314219,
        "lng":  -0.157756603930313
    },
    {
        "stationname":  "Mill Hill Broadway Rail Station",
        "lat":  51.61309110238657,
        "lng":  -0.24923967575815456
    },
    {
        "stationname":  "Morden South Rail Station",
        "lat":  51.39611461538878,
        "lng":  -0.19946095452396695
    },
    {
        "stationname":  "Mottingham Rail Station",
        "lat":  51.44021648909791,
        "lng":  0.050053987062147566
    },
    {
        "stationname":  "Motspur Park Rail Station",
        "lat":  51.39519471677825,
        "lng":  -0.23953072999693265
    },
    {
        "stationname":  "Moorgate Rail Station",
        "lat":  51.51848974925916,
        "lng":  -0.08894336868756693
    },
    {
        "stationname":  "Mortlake Rail Station",
        "lat":  51.46808513406786,
        "lng":  -0.2671056056828821
    },
    {
        "stationname":  "Maryland Rail Station",
        "lat":  51.546079670379456,
        "lng":  0.005815169518087629
    },
    {
        "stationname":  "New Barnet Rail Station",
        "lat":  51.648572893917546,
        "lng":  -0.17299711646533802
    },
    {
        "stationname":  "New Beckenham Rail Station",
        "lat":  51.416767923880116,
        "lng":  -0.03527346721600196
    },
    {
        "stationname":  "North Dulwich Rail Station",
        "lat":  51.45450863505524,
        "lng":  -0.08791751192787205
    },
    {
        "stationname":  "New Malden Rail Station",
        "lat":  51.40407292050318,
        "lng":  -0.2559395855061265
    },
    {
        "stationname":  "New Southgate Rail Station",
        "lat":  51.614111873263504,
        "lng":  -0.14303786842914148
    },
    {
        "stationname":  "New Cross Gate ELL Rail Station",
        "lat":  51.475126782278565,
        "lng":  -0.04041334303018527
    },
    {
        "stationname":  "New Cross Gate Rail Station",
        "lat":  51.47512654177391,
        "lng":  -0.040398953139214384
    },
    {
        "stationname":  "Northumberland Park Rail Station",
        "lat":  51.60196737530529,
        "lng":  -0.0539318832353272
    },
    {
        "stationname":  "Norbury Rail Station",
        "lat":  51.411444100772506,
        "lng":  -0.12192608142988037
    },
    {
        "stationname":  "Norwood Junction Rail Station",
        "lat":  51.397017351511174,
        "lng":  -0.07522153957493373
    },
    {
        "stationname":  "Norbiton Rail Station",
        "lat":  51.41235595977995,
        "lng":  -0.2840249848146022
    },
    {
        "stationname":  "North Sheen Rail Station",
        "lat":  51.46515299350318,
        "lng":  -0.2878758449912307
    },
    {
        "stationname":  "Northolt Park Rail Station",
        "lat":  51.55753798781463,
        "lng":  -0.3594658942112217
    },
    {
        "stationname":  "Nunhead Rail Station",
        "lat":  51.466826320029135,
        "lng":  -0.05227265154032559
    },
    {
        "stationname":  "Nutfield Rail Station",
        "lat":  51.22681187011279,
        "lng":  -0.13253128224078617
    },
    {
        "stationname":  "New Cross ELL Rail Station",
        "lat":  51.476342167665244,
        "lng":  -0.03244092919907801
    },
    {
        "stationname":  "New Cross Rail Station",
        "lat":  51.47634192617833,
        "lng":  -0.032426538994403384
    },
    {
        "stationname":  "New Eltham Rail Station",
        "lat":  51.43805792959913,
        "lng":  0.0705332078396904
    },
    {
        "stationname":  "North Wembley Rail Station",
        "lat":  51.56259415350829,
        "lng":  -0.30398407425972956
    },
    {
        "stationname":  "Oakleigh Park Rail Station",
        "lat":  51.6376763276086,
        "lng":  -0.16620936509534537
    },
    {
        "stationname":  "Old Street Rail Station",
        "lat":  51.525830014129276,
        "lng":  -0.08853512693310785
    },
    {
        "stationname":  "Orpington Rail Station",
        "lat":  51.37329428192141,
        "lng":  0.08909050098235828
    },
    {
        "stationname":  "Oxshott Rail Station",
        "lat":  51.33639412151873,
        "lng":  -0.36241927251960016
    },
    {
        "stationname":  "Oxted Rail Station",
        "lat":  51.25790652833339,
        "lng":  -0.00483353945474483
    },
    {
        "stationname":  "Oxted Rail Station",
        "lat":  51.25790628419499,
        "lng":  -0.004819217789443323
    },
    {
        "stationname":  "London Paddington Rail Station",
        "lat":  51.51599381054073,
        "lng":  -0.17617393500830195
    },
    {
        "stationname":  "Palmers Green Rail Station",
        "lat":  51.61831262366678,
        "lng":  -0.11043659962458724
    },
    {
        "stationname":  "Queens Road Peckham Rail Station",
        "lat":  51.473564527489046,
        "lng":  -0.05731353120218985
    },
    {
        "stationname":  "Peckham Rye Rail Station",
        "lat":  51.4700324568488,
        "lng":  -0.0694143711329524
    },
    {
        "stationname":  "Penge West Rail Station",
        "lat":  51.41755346655493,
        "lng":  -0.06083986728829868
    },
    {
        "stationname":  "Petts Wood Rail Station",
        "lat":  51.38861709528972,
        "lng":  0.07448088471063838
    },
    {
        "stationname":  "Peckham Rye Rail Station",
        "lat":  51.47003221991919,
        "lng":  -0.06939998259702808
    },
    {
        "stationname":  "Park Street Rail Station",
        "lat":  51.72545654253329,
        "lng":  -0.3402765206218952
    },
    {
        "stationname":  "Plumstead Rail Station",
        "lat":  51.48979334092551,
        "lng":  0.08425647875589841
    },
    {
        "stationname":  "Ponders End Rail Station",
        "lat":  51.64225434883484,
        "lng":  -0.0350804257439958
    },
    {
        "stationname":  "Penge East Rail Station",
        "lat":  51.41933222530341,
        "lng":  -0.05422049415434216
    },
    {
        "stationname":  "Penshurst Rail Station",
        "lat":  51.197335906400276,
        "lng":  0.1734722191130102
    },
    {
        "stationname":  "Potters Bar Rail Station",
        "lat":  51.69706568628959,
        "lng":  -0.1926054940894749
    },
    {
        "stationname":  "Purley Rail Station",
        "lat":  51.33757700770976,
        "lng":  -0.11403541239629864
    },
    {
        "stationname":  "Purley Oaks Rail Station",
        "lat":  51.347043808038485,
        "lng":  -0.09885611001179255
    },
    {
        "stationname":  "Putney Rail Station",
        "lat":  51.46130093517206,
        "lng":  -0.2164745702258256
    },
    {
        "stationname":  "Queens Park (London) Rail Station",
        "lat":  51.533964479330955,
        "lng":  -0.20498481166796573
    },
    {
        "stationname":  "Queenstown Road (Battersea) Rail Station",
        "lat":  51.4749661813746,
        "lng":  -0.146678176290027
    },
    {
        "stationname":  "Radlett Rail Station",
        "lat":  51.685186299116474,
        "lng":  -0.3172437314004853
    },
    {
        "stationname":  "Raynes Park Rail Station",
        "lat":  51.4091717440911,
        "lng":  -0.23015080890513928
    },
    {
        "stationname":  "Ravensbourne Rail Station",
        "lat":  51.41418665953669,
        "lng":  -0.007556785254684252
    },
    {
        "stationname":  "Rickmansworth Rail Station",
        "lat":  51.640245088196714,
        "lng":  -0.47328247126947476
    },
    {
        "stationname":  "Rectory Road Rail Station",
        "lat":  51.55850063791648,
        "lng":  -0.0682669166845287
    },
    {
        "stationname":  "Riddlesdown Rail Station",
        "lat":  51.33248409398536,
        "lng":  -0.0993866638198262
    },
    {
        "stationname":  "Redhill Rail Station",
        "lat":  51.24019942246878,
        "lng":  -0.16589991496118367
    },
    {
        "stationname":  "Reedham (Surrey) Rail Station",
        "lat":  51.331117993232894,
        "lng":  -0.1234157913723028
    },
    {
        "stationname":  "Reigate Rail Station",
        "lat":  51.24195668470898,
        "lng":  -0.20382509375270988
    },
    {
        "stationname":  "Richmond (London) Rail Station",
        "lat":  51.463058929276826,
        "lng":  -0.30155837945148356
    },
    {
        "stationname":  "Richmond NLL Rail Station",
        "lat":  51.463146720613814,
        "lng":  -0.3014111605941209
    },
    {
        "stationname":  "Rainham (London) Rail Station",
        "lat":  51.516721420963464,
        "lng":  0.19063346706479437
    },
    {
        "stationname":  "Romford Rail Station",
        "lat":  51.574827363849444,
        "lng":  0.18323739012033435
    },
    {
        "stationname":  "Rotherhithe Rail Station",
        "lat":  51.500814815529026,
        "lng":  -0.05204853669687022
    },
    {
        "stationname":  "South Acton Rail Station",
        "lat":  51.49969353455998,
        "lng":  -0.27015722320488517
    },
    {
        "stationname":  "Salfords (Surrey) Rail Station",
        "lat":  51.201746292750116,
        "lng":  -0.1624891379181265
    },
    {
        "stationname":  "South Bermondsey Rail Station",
        "lat":  51.488133882474266,
        "lng":  -0.05467769607098685
    },
    {
        "stationname":  "Southbury Rail Station",
        "lat":  51.64870335287654,
        "lng":  -0.05243687109017936
    },
    {
        "stationname":  "South Croydon Rail Station",
        "lat":  51.362963188022974,
        "lng":  -0.0934565470958207
    },
    {
        "stationname":  "Sudbury Hill Harrow Rail Station",
        "lat":  51.55846368548307,
        "lng":  -0.33580284210303496
    },
    {
        "stationname":  "Sudbury \u0026 Harrow Road Rail Station",
        "lat":  51.554396779873535,
        "lng":  -0.3154681661801281
    },
    {
        "stationname":  "Sanderstead Rail Station",
        "lat":  51.34828159061296,
        "lng":  -0.09367826502065592
    },
    {
        "stationname":  "Seer Green Rail Station",
        "lat":  51.60984307441803,
        "lng":  -0.6078184824015807
    },
    {
        "stationname":  "Selhurst Rail Station",
        "lat":  51.39192574377106,
        "lng":  -0.08829993684035355
    },
    {
        "stationname":  "Seven Sisters Rail Station",
        "lat":  51.58226601709349,
        "lng":  -0.07527005748584623
    },
    {
        "stationname":  "South Greenford Rail Station",
        "lat":  51.53374778759354,
        "lng":  -0.33670435641953605
    },
    {
        "stationname":  "Shadwell Rail Station",
        "lat":  51.511282338955695,
        "lng":  -0.056934331152890365
    },
    {
        "stationname":  "Shalford (Surrey) Rail Station",
        "lat":  51.21432127031386,
        "lng":  -0.5668037228660963
    },
    {
        "stationname":  "Shepperton Rail Station",
        "lat":  51.39680308100555,
        "lng":  -0.44678585502207024
    },
    {
        "stationname":  "St Helier (London) Rail Station",
        "lat":  51.38989910754255,
        "lng":  -0.19877070533324867
    },
    {
        "stationname":  "South Hampstead Rail Station",
        "lat":  51.5414304764989,
        "lng":  -0.178877727231893
    },
    {
        "stationname":  "Shepherds Bush Rail Station",
        "lat":  51.50528301800819,
        "lng":  -0.21765407267980283
    },
    {
        "stationname":  "Shoreditch High Street Rail Station",
        "lat":  51.52337355613922,
        "lng":  -0.07524614087621068
    },
    {
        "stationname":  "Shoreham (Kent) Rail Station",
        "lat":  51.332216909402725,
        "lng":  0.1888896906478888
    },
    {
        "stationname":  "Shortlands Rail Station",
        "lat":  51.405799044475735,
        "lng":  0.0017840641517222742
    },
    {
        "stationname":  "Sidcup Rail Station",
        "lat":  51.433868447821034,
        "lng":  0.10379460927045055
    },
    {
        "stationname":  "Silver Street Rail Station",
        "lat":  51.61468679893441,
        "lng":  -0.06723995604772995
    },
    {
        "stationname":  "South Kenton Rail Station",
        "lat":  51.570212282824876,
        "lng":  -0.30846240013971843
    },
    {
        "stationname":  "Slade Green Rail Station",
        "lat":  51.467784455417146,
        "lng":  0.19049138227589182
    },
    {
        "stationname":  "Slough Rail Station",
        "lat":  51.51187871950178,
        "lng":  -0.5915103779487804
    },
    {
        "stationname":  "South Merton Rail Station",
        "lat":  51.40299141348325,
        "lng":  -0.20515743421931337
    },
    {
        "stationname":  "Sundridge Park Rail Station",
        "lat":  51.41377987491536,
        "lng":  0.02144636634699903
    },
    {
        "stationname":  "South Ruislip Rail Station",
        "lat":  51.55691859061291,
        "lng":  -0.3992590973289302
    },
    {
        "stationname":  "Staines Rail Station",
        "lat":  51.432453715543964,
        "lng":  -0.5031644768911865
    },
    {
        "stationname":  "St Albans City Rail Station",
        "lat":  51.75047147439438,
        "lng":  -0.32753825704283257
    },
    {
        "stationname":  "St Albans Abbey Rail Station",
        "lat":  51.744731720445756,
        "lng":  -0.34256867327362517
    },
    {
        "stationname":  "Stratford (London) Rail Station",
        "lat":  51.541893374655764,
        "lng":  -0.0033966989861620345
    },
    {
        "stationname":  "Stratford International Rail Station",
        "lat":  51.544826503194194,
        "lng":  -0.008777607309362641
    },
    {
        "stationname":  "Southall Rail Station",
        "lat":  51.505954908772694,
        "lng":  -0.37861032380185095
    },
    {
        "stationname":  "St James Street (London) Rail Station",
        "lat":  51.580979224730804,
        "lng":  -0.032918417111885694
    },
    {
        "stationname":  "St Johns (London) Rail Station",
        "lat":  51.469389124972764,
        "lng":  -0.022718786492199043
    },
    {
        "stationname":  "Stoke Newington Rail Station",
        "lat":  51.565231083885834,
        "lng":  -0.07288739102123112
    },
    {
        "stationname":  "Stoneleigh Rail Station",
        "lat":  51.36339896146765,
        "lng":  -0.2486651710378655
    },
    {
        "stationname":  "Stamford Hill Rail Station",
        "lat":  51.57446569801687,
        "lng":  -0.07668196231719042
    },
    {
        "stationname":  "St Margarets (London) Rail Station",
        "lat":  51.45523434260661,
        "lng":  -0.32020045335046604
    },
    {
        "stationname":  "St Mary Cray Rail Station",
        "lat":  51.394747618132925,
        "lng":  0.1063836291202049
    },
    {
        "stationname":  "Stonebridge Park Rail Station",
        "lat":  51.5441093045482,
        "lng":  -0.275828384179817
    },
    {
        "stationname":  "South Tottenham Rail Station",
        "lat":  51.58037056301416,
        "lng":  -0.07210263305595033
    },
    {
        "stationname":  "London St Pancras International Rail Station",
        "lat":  51.53251188621685,
        "lng":  -0.126463427188153
    },
    {
        "stationname":  "London St Pancras International Rail Station",
        "lat":  51.53238859120708,
        "lng":  -0.12718939494142573
    },
    {
        "stationname":  "London St Pancras International LL Rail Station",
        "lat":  51.532166226284225,
        "lng":  -0.12734270158813968
    },
    {
        "stationname":  "Streatham Rail Station",
        "lat":  51.425806323927816,
        "lng":  -0.13155029435724686
    },
    {
        "stationname":  "Streatham Common Rail Station",
        "lat":  51.41872818492563,
        "lng":  -0.13600981297342113
    },
    {
        "stationname":  "Streatham Hill Rail Station",
        "lat":  51.438191051890946,
        "lng":  -0.12716007253421946
    },
    {
        "stationname":  "Strawberry Hill Rail Station",
        "lat":  51.43896127575149,
        "lng":  -0.339358418995702
    },
    {
        "stationname":  "Sunbury Rail Station",
        "lat":  51.418311503251886,
        "lng":  -0.4177826264117132
    },
    {
        "stationname":  "Sunnymeads Rail Station",
        "lat":  51.470286605927264,
        "lng":  -0.5593741784674158
    },
    {
        "stationname":  "Surbiton Rail Station",
        "lat":  51.39245799271801,
        "lng":  -0.3039585152715292
    },
    {
        "stationname":  "Surrey Quays Rail Station",
        "lat":  51.493194660160775,
        "lng":  -0.04751862176293864
    },
    {
        "stationname":  "Sutton (London) Rail Station",
        "lat":  51.35953146419301,
        "lng":  -0.191214776169317
    },
    {
        "stationname":  "Sutton Common Rail Station",
        "lat":  51.374889034093805,
        "lng":  -0.1963425365703235
    },
    {
        "stationname":  "Seven Kings Rail Station",
        "lat":  51.56402453427973,
        "lng":  0.09710018645681312
    },
    {
        "stationname":  "Sevenoaks Rail Station",
        "lat":  51.276863718093836,
        "lng":  0.18166896638340968
    },
    {
        "stationname":  "Swanley Rail Station",
        "lat":  51.3933851164928,
        "lng":  0.16922539218815053
    },
    {
        "stationname":  "Sydenham Rail Station",
        "lat":  51.42724621755268,
        "lng":  -0.054243939996799634
    },
    {
        "stationname":  "Sydenham Hill Rail Station",
        "lat":  51.432712448448676,
        "lng":  -0.08033953002698371
    },
    {
        "stationname":  "Syon Lane Rail Station",
        "lat":  51.481783277881696,
        "lng":  -0.3248418678634808
    },
    {
        "stationname":  "Tadworth Rail Station",
        "lat":  51.291635827495604,
        "lng":  -0.23596462471582663
    },
    {
        "stationname":  "Tattenham Corner Rail Station",
        "lat":  51.30918156906775,
        "lng":  -0.24260924672052345
    },
    {
        "stationname":  "Thames Ditton Rail Station",
        "lat":  51.38909531985697,
        "lng":  -0.339152139373108
    },
    {
        "stationname":  "Teddington Rail Station",
        "lat":  51.42447898723815,
        "lng":  -0.3327059431275227
    },
    {
        "stationname":  "Theobalds Grove Rail Station",
        "lat":  51.692454867341816,
        "lng":  -0.034831340553469065
    },
    {
        "stationname":  "Thornton Heath Rail Station",
        "lat":  51.398775621364564,
        "lng":  -0.10030590511190084
    },
    {
        "stationname":  "Tolworth Rail Station",
        "lat":  51.37685852410679,
        "lng":  -0.2794614241725398
    },
    {
        "stationname":  "Tooting Rail Station",
        "lat":  51.41984674270429,
        "lng":  -0.16127769031370343
    },
    {
        "stationname":  "Tottenham Hale Rail Station",
        "lat":  51.588308152626276,
        "lng":  -0.05992914444916026
    },
    {
        "stationname":  "Tulse Hill Rail Station",
        "lat":  51.43985947523252,
        "lng":  -0.1050767250542206
    },
    {
        "stationname":  "Turkey Street Rail Station",
        "lat":  51.67262639632889,
        "lng":  -0.04721659594161483
    },
    {
        "stationname":  "Twickenham Rail Station",
        "lat":  51.45002947511077,
        "lng":  -0.33039377420886534
    },
    {
        "stationname":  "Upper Halliford Rail Station",
        "lat":  51.41306553278566,
        "lng":  -0.4309057444108448
    },
    {
        "stationname":  "Upper Holloway Rail Station",
        "lat":  51.5636295406487,
        "lng":  -0.1295130402103143
    },
    {
        "stationname":  "Upper Warlingham Rail Station",
        "lat":  51.30851006994291,
        "lng":  -0.07795170518453488
    },
    {
        "stationname":  "Vauxhall Rail Station",
        "lat":  51.48618817296866,
        "lng":  -0.12288950769794038
    },
    {
        "stationname":  "Vauxhall Rail Station",
        "lat":  51.486187942549165,
        "lng":  -0.12287511363093082
    },
    {
        "stationname":  "London Victoria Rail Station",
        "lat":  51.49525580453694,
        "lng":  -0.14455876603686296
    },
    {
        "stationname":  "London Victoria Rail Station",
        "lat":  51.495255576748484,
        "lng":  -0.14454436893656755
    },
    {
        "stationname":  "Virginia Water Rail Station",
        "lat":  51.401800475049335,
        "lng":  -0.5621737885399843
    },
    {
        "stationname":  "Waddon Rail Station",
        "lat":  51.36739612620357,
        "lng":  -0.11733587009083005
    },
    {
        "stationname":  "Waltham Cross Rail Station",
        "lat":  51.68505929230889,
        "lng":  -0.026558355552689896
    },
    {
        "stationname":  "Wallington Rail Station",
        "lat":  51.36038477667392,
        "lng":  -0.150832910993827
    },
    {
        "stationname":  "Wandsworth Common Rail Station",
        "lat":  51.44618313032601,
        "lng":  -0.16338594886212213
    },
    {
        "stationname":  "Wapping Rail Station",
        "lat":  51.50438636062489,
        "lng":  -0.055930856150868555
    },
    {
        "stationname":  "Watford High Street Rail Station",
        "lat":  51.65265327266825,
        "lng":  -0.39171112698972
    },
    {
        "stationname":  "Watford Junction Rail Station",
        "lat":  51.6639059839747,
        "lng":  -0.3959252628403231
    },
    {
        "stationname":  "Watford North Rail Station",
        "lat":  51.67570234639763,
        "lng":  -0.3899257563672953
    },
    {
        "stationname":  "Watford Junction Rail Station",
        "lat":  51.66352740745384,
        "lng":  -0.3965170024269595
    },
    {
        "stationname":  "London Waterloo Rail Station",
        "lat":  51.50329692029314,
        "lng":  -0.11310890543604929
    },
    {
        "stationname":  "West Brompton Rail Station",
        "lat":  51.487059659199375,
        "lng":  -0.19559259649044694
    },
    {
        "stationname":  "West Byfleet Rail Station",
        "lat":  51.33922404428808,
        "lng":  -0.5054851725022314
    },
    {
        "stationname":  "Whitechapel Rail Station",
        "lat":  51.51946737210091,
        "lng":  -0.059757083488983
    },
    {
        "stationname":  "Westcombe Park Rail Station",
        "lat":  51.48420100627544,
        "lng":  0.018394694658583025
    },
    {
        "stationname":  "West Croydon Rail Station",
        "lat":  51.37842605576957,
        "lng":  -0.10258550937751176
    },
    {
        "stationname":  "Woodgrange Park Rail Station",
        "lat":  51.54926205215856,
        "lng":  0.04442326707905526
    },
    {
        "stationname":  "Woodmansterne Rail Station",
        "lat":  51.31901833729536,
        "lng":  -0.15426208572084732
    },
    {
        "stationname":  "Wimbledon Rail Station",
        "lat":  51.42127387437139,
        "lng":  -0.20636862114663487
    },
    {
        "stationname":  "West Drayton Rail Station",
        "lat":  51.510053230198054,
        "lng":  -0.4722342601483857
    },
    {
        "stationname":  "Wood Street Rail Station",
        "lat":  51.58657871984152,
        "lng":  -0.002405359436456414
    },
    {
        "stationname":  "West Dulwich Rail Station",
        "lat":  51.44071623349788,
        "lng":  -0.09137147041256656
    },
    {
        "stationname":  "Wandsworth Town Rail Station",
        "lat":  51.46104610103511,
        "lng":  -0.18812543819175476
    },
    {
        "stationname":  "West Ealing Rail Station",
        "lat":  51.5135038178435,
        "lng":  -0.3201332375067628
    },
    {
        "stationname":  "Welham Green Rail Station",
        "lat":  51.73635048762817,
        "lng":  -0.21069170782635827
    },
    {
        "stationname":  "Welling Rail Station",
        "lat":  51.464796784118946,
        "lng":  0.10168959459270083
    },
    {
        "stationname":  "Wembley Stadium Rail Station",
        "lat":  51.55441391286919,
        "lng":  -0.28560825999510053
    },
    {
        "stationname":  "Weybridge Rail Station",
        "lat":  51.36176959368703,
        "lng":  -0.4577386202827416
    },
    {
        "stationname":  "Weybridge Rail Station",
        "lat":  51.361769404689326,
        "lng":  -0.45772426274192074
    },
    {
        "stationname":  "West Ham Rail Station",
        "lat":  51.52848762484901,
        "lng":  0.005431106877327701
    },
    {
        "stationname":  "White Hart Lane Rail Station",
        "lat":  51.60503537730835,
        "lng":  -0.07091357788736705
    },
    {
        "stationname":  "West Hampstead Rail Station",
        "lat":  51.54746593303635,
        "lng":  -0.19118455367496287
    },
    {
        "stationname":  "West Hampstead Thameslink Rail Station",
        "lat":  51.54847414465399,
        "lng":  -0.19183687469430458
    },
    {
        "stationname":  "Whitton Rail Station",
        "lat":  51.44960559130873,
        "lng":  -0.35768136675366013
    },
    {
        "stationname":  "Whyteleafe Rail Station",
        "lat":  51.30995639123079,
        "lng":  -0.08114833735657695
    },
    {
        "stationname":  "Whyteleafe South Rail Station",
        "lat":  51.30338514480855,
        "lng":  -0.07691769115577608
    },
    {
        "stationname":  "Wimbledon Rail Station",
        "lat":  51.42127409434763,
        "lng":  -0.20638299548550998
    },
    {
        "stationname":  "Wimbledon Chase Rail Station",
        "lat":  51.4095566779812,
        "lng":  -0.21403119201502688
    },
    {
        "stationname":  "Windsor \u0026 Eton Central Rail Station",
        "lat":  51.483266224337264,
        "lng":  -0.6103798875814405
    },
    {
        "stationname":  "Woldingham Rail Station",
        "lat":  51.29015617182165,
        "lng":  -0.05186966998322942
    },
    {
        "stationname":  "London Waterloo East Rail Station",
        "lat":  51.50407439710754,
        "lng":  -0.10889812243496462
    },
    {
        "stationname":  "Willesden Junction Rail Station",
        "lat":  51.53249492117341,
        "lng":  -0.2445478476921935
    },
    {
        "stationname":  "Willesden Junction Low Level Rail Station",
        "lat":  51.53202614858039,
        "lng":  -0.24326827967824569
    },
    {
        "stationname":  "Walthamstow Queens Road Rail Station",
        "lat":  51.581501233377345,
        "lng":  -0.023845850455993082
    },
    {
        "stationname":  "Walthamstow Central Rail Station",
        "lat":  51.582917055536,
        "lng":  -0.019814986406278035
    },
    {
        "stationname":  "Wembley Central Rail Station",
        "lat":  51.55232350095927,
        "lng":  -0.29643282187385256
    },
    {
        "stationname":  "Wembley Central Rail Station",
        "lat":  51.552323291649316,
        "lng":  -0.29641840557812815
    },
    {
        "stationname":  "Wandsworth Road Rail Station",
        "lat":  51.47021476226116,
        "lng":  -0.1385196226220943
    },
    {
        "stationname":  "Winchmore Hill Rail Station",
        "lat":  51.63394038921789,
        "lng":  -0.10090019769959
    },
    {
        "stationname":  "West Norwood Rail Station",
        "lat":  51.43174592326113,
        "lng":  -0.10382995333440817
    },
    {
        "stationname":  "Wanstead Park Rail Station",
        "lat":  51.551691262342274,
        "lng":  0.026213030338088073
    },
    {
        "stationname":  "Woking Rail Station",
        "lat":  51.31846765064806,
        "lng":  -0.5569596428186699
    },
    {
        "stationname":  "Woolwich Dockyard Rail Station",
        "lat":  51.491125362009925,
        "lng":  0.054641986697054605
    },
    {
        "stationname":  "Woolwich Arsenal Rail Station",
        "lat":  51.489907240700454,
        "lng":  0.06919394867199517
    },
    {
        "stationname":  "Walton-on-Thames Rail Station",
        "lat":  51.37292937329837,
        "lng":  -0.4146349864800607
    },
    {
        "stationname":  "Worcester Park Rail Station",
        "lat":  51.38125085976464,
        "lng":  -0.2451672657283847
    },
    {
        "stationname":  "Worplesdon Rail Station",
        "lat":  51.2890157522868,
        "lng":  -0.5825781533216816
    },
    {
        "stationname":  "West Ruislip Rail Station",
        "lat":  51.5697567859491,
        "lng":  -0.43776770222495814
    },
    {
        "stationname":  "Wraysbury Rail Station",
        "lat":  51.457706676521504,
        "lng":  -0.5419218459204487
    },
    {
        "stationname":  "Windsor \u0026 Eton Riverside Rail Station",
        "lat":  51.485648455863895,
        "lng":  -0.6065340033133959
    },
    {
        "stationname":  "West Sutton Rail Station",
        "lat":  51.36585216351459,
        "lng":  -0.20517330567098244
    },
    {
        "stationname":  "West Wickham Rail Station",
        "lat":  51.38129972701693,
        "lng":  -0.014431908697937453
    }
]